[
  {
    "id": "001",
    "name": "屈臣氏鳳西店",
    "category": "藥局",
    "subcategory": "連鎮藥局",
    "address": "高雄市鳳山區五甲一路106號",
    "phone": "07-7107399",
    "lat": "22.6156",
    "lng": "120.3544",
    "services": "藥妝零售",
    "features": "連鎮藥局",
    "district": "五甲地區",
    "nearby_landmarks": "五甲商圈",
    "description": "屈臣氏連鎮藥局"
  },
  {
    "id": "002",
    "name": "屈臣氏鳳山門市",
    "category": "藥局",
    "subcategory": "連鎮藥局",
    "address": "高雄市鳳山區中山路120-1號1-2F",
    "phone": "07-7450560",
    "lat": "22.6275",
    "lng": "120.3567",
    "services": "藥妝零售",
    "features": "連鎮藥局",
    "district": "鳳山市中心",
    "nearby_landmarks": "中山路商圈",
    "description": "屈臣氏連鎮藥局"
  },
  {
    "id": "003",
    "name": "屈臣氏青年門市",
    "category": "藥局",
    "subcategory": "連鎮藥局",
    "address": "高雄市鳳山區青年路二段389號",
    "phone": "07-7776428",
    "lat": "22.6156",
    "lng": "120.3544",
    "services": "藥妝零售",
    "features": "連鎮藥局",
    "district": "鳳山市中心",
    "nearby_landmarks": "青年路商圈",
    "description": "屈臣氏連鎮藥局"
  },
  {
    "id": "004",
    "name": "屈臣氏五甲門市",
    "category": "藥局",
    "subcategory": "連鎮藥局",
    "address": "高雄市鳳山區五甲二路690號",
    "phone": "07-8210753",
    "lat": "22.6156",
    "lng": "120.3544",
    "services": "藥妝零售",
    "features": "連鎮藥局",
    "district": "五甲地區",
    "nearby_landmarks": "五甲商圈",
    "description": "屈臣氏連鎮藥局"
  },
  {
    "id": "005",
    "name": "屈臣氏鳳松門市",
    "category": "藥局",
    "subcategory": "連鎮藥局",
    "address": "高雄市鳳山區經武路229號1-2樓",
    "phone": "07-7198636",
    "operating_hours": "週一至週日 10:00-22:00",
    "lat": "22.6156",
    "lng": "120.3544",
    "services": "藥妝零售",
    "features": "連鎮藥局",
    "district": "鳳山市中心",
    "nearby_landmarks": "經武路商圈",
    "description": "屈臣氏連鎮藥局"
  },
  {
    "id": "006",
    "name": "康是美鳳南門市",
    "category": "藥局",
    "subcategory": "連鎮藥局",
    "address": "高雄市鳳山區鳳南路165號",
    "operating_hours": "每日 09:00-23:00",
    "lat": "22.6156",
    "lng": "120.3544",
    "services": "藥妝零售",
    "features": "連鎮藥局",
    "district": "鳳山市中心",
    "nearby_landmarks": "鳳南路商圈",
    "description": "康是美連鎮藥局"
  },
  {
    "id": "007",
    "name": "康是美鳳勝門市",
    "category": "藥局",
    "subcategory": "連鎮藥局",
    "address": "高雄市鳳山區中山路126-2號",
    "phone": "07-7407964",
    "lat": "22.6275",
    "lng": "120.3567",
    "services": "藥妝零售",
    "features": "連鎮藥局",
    "district": "鳳山市中心",
    "nearby_landmarks": "中山路商圈",
    "description": "康是美連鎮藥局"
  },
  {
    "id": "008",
    "name": "康是美五甲藥局",
    "category": "藥局",
    "subcategory": "連鎮藥局",
    "address": "高雄市鳳山區五甲二路754號1、2樓",
    "phone": "07-8121586",
    "operating_hours": "週一至週日 10:00-23:00",
    "lat": "22.6156",
    "lng": "120.3544",
    "services": "藥妝零售、健保處方調劑",
    "features": "連鎮藥局",
    "district": "五甲地區",
    "nearby_landmarks": "五甲商圈",
    "description": "康是美連鎮藥局"
  },
  {
    "id": "009",
    "name": "康是美鳳甲門市",
    "category": "藥局",
    "subcategory": "連鎮藥局",
    "address": "高雄市鳳山區新富路452號",
    "phone": "07-7634412",
    "operating_hours": "每日 09:00-23:00",
    "lat": "22.6397",
    "lng": "120.3483",
    "services": "藥妝零售",
    "features": "連鎮藥局",
    "district": "文山特區",
    "nearby_landmarks": "新富路商圈",
    "description": "康是美連鎮藥局"
  },
  {
    "id": "010",
    "name": "康是美鳳冠藥局",
    "category": "藥局",
    "subcategory": "連鎮藥局",
    "address": "高雄市鳳山區青年路二段197-2號",
    "phone": "07-7775940",
    "operating_hours": "每日 09:00-23:00",
    "lat": "22.6156",
    "lng": "120.3544",
    "services": "藥妝零售、健保處方調劑",
    "features": "連鎮藥局",
    "district": "鳳山市中心",
    "nearby_landmarks": "青年路商圈",
    "description": "康是美連鎮藥局"
  },
  {
    "id": "011",
    "name": "康是美鳳翔門市",
    "category": "藥局",
    "subcategory": "連鎮藥局",
    "address": "高雄市鳳山區中山路124號",
    "phone": "07-7103597",
    "operating_hours": "13:00-21:00",
    "google_rating": "6.8",
    "lat": "22.6275",
    "lng": "120.3567",
    "services": "藥妝零售",
    "features": "連鎮藥局",
    "district": "鳳山市中心",
    "nearby_landmarks": "中山路商圈",
    "description": "康是美連鎮藥局"
  },
  {
    "id": "012",
    "name": "康是美鳳青門市",
    "category": "藥局",
    "subcategory": "連鎮藥局",
    "address": "高雄市鳳山區青年路二段455號1樓",
    "phone": "07-7806056",
    "lat": "22.6156",
    "lng": "120.3544",
    "services": "藥妝零售",
    "features": "連鎮藥局",
    "district": "鳳山市中心",
    "nearby_landmarks": "青年路商圈",
    "description": "康是美連鎮藥局"
  },
  {
    "id": "013",
    "name": "大樹藥局鳳山中山店",
    "category": "藥局",
    "subcategory": "連鎮藥局",
    "address": "高雄市鳳山區中山西路238號",
    "phone": "07-7902717",
    "operating_hours": "09:00-22:00",
    "lat": "22.6275",
    "lng": "120.3567",
    "services": "慢性病連續處方籤調劑、藥物諮詢、醫學美容、婦嬰用品",
    "features": "連鎮藥局",
    "district": "鳳山市中心",
    "nearby_landmarks": "中山西路商圈",
    "description": "大樹藥局連鎮藥局"
  },
  {
    "id": "014",
    "name": "大樹藥局鳳山青年店",
    "category": "藥局",
    "subcategory": "連鎮藥局",
    "address": "高雄市鳳山區青年路二段399號",
    "phone": "07-7678383",
    "operating_hours": "09:30-22:30",
    "lat": "22.6156",
    "lng": "120.3544",
    "services": "慢性病連續處方籤調劑、藥物諮詢、醫學美容、婦嬰用品",
    "features": "連鎮藥局",
    "district": "鳳山市中心",
    "nearby_landmarks": "青年路商圈",
    "description": "大樹藥局連鎮藥局"
  },
  {
    "id": "015",
    "name": "大樹藥局鳳山新富店",
    "category": "藥局",
    "subcategory": "連鎮藥局",
    "address": "高雄市鳳山區新富路373號",
    "phone": "07-7671181",
    "operating_hours": "09:00-22:00",
    "lat": "22.6397",
    "lng": "120.3483",
    "services": "慢性病連續處方籤調劑、藥物諮詢、醫學美容、婦嬰用品",
    "features": "連鎮藥局",
    "district": "文山特區",
    "nearby_landmarks": "新富路商圈",
    "description": "大樹藥局連鎮藥局"
  },
  {
    "id": "016",
    "name": "詠品書店衛武營限定店",
    "category": "書店",
    "subcategory": "連鎮書店",
    "address": "高雄市鳳山區三多一路1號(衛武營國家藝術文化中心3F)",
    "phone": "0910-711-732",
    "operating_hours": "每日 11:00-20:00",
    "lat": "22.6156",
    "lng": "120.3544",
    "services": "書籍、文創商品、雜誌",
    "features": "連鎮書店",
    "district": "鳳山體育園區",
    "nearby_landmarks": "衛武營國家藝術文化中心",
    "description": "詠品書店限定店"
  },
  {
    "id": "017",
    "name": "金石堂書店鳳山店",
    "category": "書店",
    "subcategory": "連鎮書店",
    "address": "高雄市鳳山區中山西路236號(家樂福2樓)",
    "lat": "22.6275",
    "lng": "120.3567",
    "services": "書籍、雜誌、文具",
    "features": "連鎮書店",
    "district": "鳳山市中心",
    "nearby_landmarks": "家樂福鳳山店",
    "description": "位於家樂福賣場內"
  },
  {
    "id": "018",
    "name": "玉蘭書店·玉蘭苑",
    "category": "書店",
    "subcategory": "獨立書店",
    "address": "高雄市鳳山區黃埔新村東四巷110-1號",
    "phone": "07-719-5610",
    "operating_hours": "11:30-14:00, 17:30-21:00(週一、二公休)",
    "google_rating": "4.8",
    "lat": "22.6275",
    "lng": "120.3567",
    "services": "書籍、湘菜餐館、黑膠唱片",
    "features": "獨立書店",
    "district": "鳳山市中心",
    "nearby_landmarks": "黃埔新村",
    "description": "結合湘菜餐館、黑膠唱片"
  },
  {
    "id": "019",
    "name": "書眷味 Books&Café",
    "category": "書店",
    "subcategory": "獨立書店",
    "address": "高雄市鳳山區黃埔新村東二巷88號",
    "phone": "07-554-8577",
    "operating_hours": "週三至週日 10:00-19:00(週一、二公休)",
    "lat": "22.6275",
    "lng": "120.3567",
    "services": "二手書籍、飲品及輕食",
    "features": "獨立書店",
    "district": "鳳山市中心",
    "nearby_landmarks": "黃埔新村",
    "description": "販售二手書籍，提供飲品及輕食"
  },
  {
    "id": "020",
    "name": "鳳山大書城",
    "category": "書店",
    "subcategory": "獨立書店",
    "address": "高雄市鳳山區中山路138號地下樓",
    "phone": "07-743-2143",
    "google_rating": "4.4",
    "lat": "22.6275",
    "lng": "120.3567",
    "services": "書籍、雜誌",
    "features": "獨立書店",
    "district": "鳳山市中心",
    "nearby_landmarks": "中山路商圈",
    "description": "已於2024年4月30日歇業"
  },
  {
    "id": "021",
    "name": "致遠二手書店",
    "category": "書店",
    "subcategory": "二手書店",
    "address": "高雄市鳳山區輜汽路162號",
    "phone": "0913-593-632",
    "operating_hours": "每日 17:00-22:00",
    "lat": "22.6156",
    "lng": "120.3544",
    "services": "二手書籍買賣",
    "features": "二手書店",
    "district": "鳳山市中心",
    "nearby_landmarks": "輜汽路",
    "description": "地址已搬遷至現址"
  },
  {
    "id": "022",
    "name": "同利二手書",
    "category": "書店",
    "subcategory": "二手書店",
    "address": "高雄市鳳山區中利街89號",
    "phone": "0953-881-559",
    "operating_hours": "週一至週旧 14:30-21:30",
    "lat": "22.6156",
    "lng": "120.3544",
    "services": "二手書籍買賣",
    "features": "二手書店",
    "district": "鳳山市中心",
    "nearby_landmarks": "中利街"
  },
  {
    "id": "023",
    "name": "金寶二手書",
    "category": "書店",
    "subcategory": "二手書店",
    "address": "高雄市鳳山區青年路二段622號",
    "phone": "07-767-7199",
    "lat": "22.6156",
    "lng": "120.3544",
    "services": "二手書籍買賣",
    "features": "二手書店",
    "district": "鳳山市中心",
    "nearby_landmarks": "青年路商圈"
  },
  {
    "id": "024",
    "name": "Boss漫畫休閒屋",
    "category": "書店",
    "subcategory": "漫畫書店",
    "address": "高雄市鳳山區濱山街23號",
    "phone": "07-780-6065",
    "lat": "22.6156",
    "lng": "120.3544",
    "services": "漫畫書籍、休閒閱讀",
    "features": "漫畫書店",
    "district": "鳳山市中心",
    "nearby_landmarks": "濱山街"
  },
  {
    "id": "025",
    "name": "E世代漫畫王",
    "category": "書店",
    "subcategory": "漫畫書店",
    "address": "高雄市鳳山區文化路42號",
    "phone": "07-746-8551",
    "lat": "22.6275",
    "lng": "120.3567",
    "services": "漫畫書籍、休閒閱讀",
    "features": "漫畫書店",
    "district": "鳳山車站周邊",
    "nearby_landmarks": "文化路"
  },
  {
    "id": "026",
    "name": "城市漫畫鳳山店",
    "category": "書店",
    "subcategory": "漫畫書店",
    "address": "高雄市鳳山區安寧街123號",
    "phone": "07-740-4067",
    "lat": "22.6156",
    "lng": "120.3544",
    "services": "漫畫書籍、休閒閱讀",
    "features": "漫畫書店",
    "district": "鳳山市中心",
    "nearby_landmarks": "安寧街"
  },
  {
    "id": "027",
    "name": "九乘九文具專家高雄五甲店",
    "category": "書店",
    "subcategory": "文具書店",
    "address": "高雄市鳳山區五甲二路478號",
    "phone": "07-841-1999",
    "operating_hours": "每日 10:00-22:10",
    "lat": "22.6156",
    "lng": "120.3544",
    "services": "文具用品、圖書",
    "features": "文具書店",
    "district": "五甲地區",
    "nearby_landmarks": "五甲商圈",
    "description": "大型連鎮文具店，兼售圖書"
  },
  {
    "id": "028",
    "name": "101文具天堂鳳山青年店",
    "category": "書店",
    "subcategory": "文具書店",
    "address": "高雄市鳳山區青年路二段385號",
    "phone": "07-777-6310",
    "operating_hours": "每日 09:30-22:00",
    "lat": "22.6156",
    "lng": "120.3544",
    "services": "文具用品、圖書",
    "features": "文具書店",
    "district": "鳳山市中心",
    "nearby_landmarks": "青年路商圈",
    "description": "大型連鎮文具店，兼售圖書"
  },
  {
    "id": "029",
    "name": "101文具天堂五甲忠誠店",
    "category": "書店",
    "subcategory": "文具書店",
    "address": "高雄市鳳山區忠誠路110號",
    "phone": "07-841-5570",
    "operating_hours": "每日 09:30-22:00",
    "lat": "22.6156",
    "lng": "120.3544",
    "services": "文具用品、圖書",
    "features": "文具書店",
    "district": "五甲地區",
    "nearby_landmarks": "忠誠路",
    "description": "大型連鎮文具店，兼售圖書"
  },
  {
    "id": "030",
    "name": "高雄市鳳山區公所",
    "category": "政府機關",
    "subcategory": "區公所",
    "address": "高雄市鳳山區經武路30號",
    "phone": "07-742-2111",
    "operating_hours": "週一至週五 08:00-12:00, 13:30-17:30",
    "lat": "22.6156",
    "lng": "120.3544",
    "services": "民政服務、證明申請",
    "features": "區公所",
    "district": "鳳山市中心",
    "nearby_landmarks": "經武路",
    "description": "高雄市鳳山區公所"
  },
  {
    "id": "031",
    "name": "高雄市鳳山戶政事務所",
    "category": "政府機關",
    "subcategory": "戶政事務所",
    "address": "高雄市鳳山區經武路34巷1號",
    "phone": "07-742-9784",
    "operating_hours": "週一至週五 08:00-17:30，週六 09:00-12:00",
    "lat": "22.6156",
    "lng": "120.3544",
    "services": "戶政登記、證明申請",
    "features": "戶政事務所",
    "district": "鳳山市中心",
    "nearby_landmarks": "經武路",
    "description": "高雄市鳳山戶政事務所"
  },
  {
    "id": "032",
    "name": "高雄市鳳山戶政事務所第二辦公處",
    "category": "政府機關",
    "subcategory": "戶政事務所",
    "address": "高雄市鳳山區五甲二路472號四樓",
    "phone": "07-751-1841",
    "operating_hours": "週一至週五 08:00-17:30，週六 09:00-12:00",
    "lat": "22.6156",
    "lng": "120.3544",
    "services": "戶政登記、證明申請",
    "features": "戶政事務所",
    "district": "五甲地區",
    "nearby_landmarks": "五甲二路",
    "description": "高雄市鳳山戶政事務所第二辦公處"
  },
  {
    "id": "033",
    "name": "高雄市政府地政局鳳山地政事務所",
    "category": "政府機關",
    "subcategory": "地政事務所",
    "address": "高雄市鳳山區中山西路154之6號",
    "phone": "07-740-0111",
    "operating_hours": "週一至週五 08:00-12:00, 13:30-17:30",
    "lat": "22.6275",
    "lng": "120.3567",
    "services": "地政登記、謄本申請",
    "features": "地政事務所",
    "district": "鳳山市中心",
    "nearby_landmarks": "中山西路",
    "description": "高雄市政府地政局鳳山地政事務所"
  },
  {
    "id": "034",
    "name": "高雄市稅捐稽徵處鳳山分處",
    "category": "政府機關",
    "subcategory": "稅捐稽徵處",
    "address": "高雄市鳳山區國泰路二段136號",
    "phone": "07-741-0141",
    "operating_hours": "週一至週五 08:00-12:00, 13:30-17:30",
    "lat": "22.6156",
    "lng": "120.3544",
    "services": "地方稅務服務",
    "features": "稅捐稽徵處",
    "district": "鳳山體育園區",
    "nearby_landmarks": "國泰路",
    "description": "高雄市稅捐稽徵處鳳山分處"
  },
  {
    "id": "035",
    "name": "財政部高雄國稅局鳳山分局",
    "category": "政府機關",
    "subcategory": "國稅局",
    "address": "高雄市鳳山區曹公路55-1號",
    "phone": "07-740-4001",
    "operating_hours": "週一至週五 08:00-12:00, 13:30-17:30",
    "lat": "22.6275",
    "lng": "120.3567",
    "services": "國稅服務",
    "features": "國稅局",
    "district": "鳳山車站周邊",
    "nearby_landmarks": "曹公路",
    "description": "財政部高雄國稅局鳳山分局"
  },
  {
    "id": "036",
    "name": "高雄市政府警察局鳳山分局",
    "category": "政府機關",
    "subcategory": "警察局",
    "address": "高雄市鳳山區文龍東路566號",
    "phone": "07-777-9299",
    "operating_hours": "24小時",
    "lat": "22.6156",
    "lng": "120.3544",
    "services": "治安維護、民眾服務",
    "features": "警察局",
    "district": "鳳山市中心",
    "nearby_landmarks": "文龍東路",
    "description": "高雄市政府警察局鳳山分局"
  },
  {
    "id": "037",
    "name": "高雄市政府消防局第三大隊鳳山分隊",
    "category": "政府機關",
    "subcategory": "消防局",
    "address": "高雄市鳳山區經武路36號",
    "phone": "07-746-9595",
    "operating_hours": "24小時",
    "lat": "22.6156",
    "lng": "120.3544",
    "services": "消防救災、緊急救護",
    "features": "消防局",
    "district": "鳳山市中心",
    "nearby_landmarks": "經武路",
    "description": "高雄市政府消防局第三大隊鳳山分隊"
  },
  {
    "id": "038",
    "name": "高雄市鳳山區衛生所",
    "category": "政府機關",
    "subcategory": "衛生所",
    "address": "高雄市鳳山區經武路34巷2號",
    "phone": "07-743-0437",
    "operating_hours": "週一至週五 08:00-12:00, 13:30-17:30",
    "lat": "22.6156",
    "lng": "120.3544",
    "services": "公共衛生服務、預防接種",
    "features": "衛生所",
    "district": "鳳山市中心",
    "nearby_landmarks": "經武路",
    "description": "高雄市鳳山區衛生所"
  },
  {
    "id": "039",
    "name": "高雄市立圖書館鳳山曹公分館",
    "category": "政府機關",
    "subcategory": "圖書館",
    "address": "高雄市鳳山區曹公路23號",
    "phone": "07-746-8809",
    "operating_hours": "週二至週六 09:00-21:00；週日 09:00-17:00",
    "lat": "22.6275",
    "lng": "120.3567",
    "services": "圖書借閱、閱讀服務",
    "features": "圖書館",
    "district": "鳳山車站周邊",
    "nearby_landmarks": "曹公路",
    "description": "高雄市立圖書館鳳山曹公分館"
  },
  {
    "id": "040",
    "name": "高雄市立圖書館鳳山二館",
    "category": "政府機關",
    "subcategory": "圖書館",
    "address": "高雄市鳳山區自強一路119巷75號",
    "phone": "07-841-5875",
    "lat": "22.6156",
    "lng": "120.3544",
    "services": "圖書借閱、閱讀服務",
    "features": "圖書館",
    "district": "五甲地區",
    "nearby_landmarks": "自強一路",
    "description": "高雄市立圖書館鳳山二館"
  },
  {
    "id": "041",
    "name": "鳳山郵局(高雄96支)",
    "category": "政府機關",
    "subcategory": "郵局",
    "address": "高雄市鳳山區中山東路86-2號",
    "phone": "07-746-2446",
    "operating_hours": "郵務:週一至週五 08:30-20:00；儲匯:週一至週五 08:30-17:30",
    "lat": "22.6275",
    "lng": "120.3567",
    "services": "郵務、儲匯服務",
    "features": "郵局",
    "district": "鳳山市中心",
    "nearby_landmarks": "中山東路",
    "description": "鳳山郵局(高雄96支)"
  },
  {
    "id": "042",
    "name": "鳳山行政中心郵局",
    "category": "政府機關",
    "subcategory": "郵局",
    "address": "高雄市鳳山區光復路2段132號",
    "phone": "07-742-0218",
    "operating_hours": "週一至週五 08:30-17:00",
    "lat": "22.6156",
    "lng": "120.3544",
    "services": "郵務、儲匯服務",
    "features": "郵局",
    "district": "鳳山市中心",
    "nearby_landmarks": "光復路",
    "description": "鳳山行政中心郵局"
  },
  {
    "id": "043",
    "name": "鳳山三民路郵局",
    "category": "政府機關",
    "subcategory": "郵局",
    "address": "高雄市鳳山區三民路289號",
    "phone": "07-745-2124",
    "operating_hours": "週一至週五 08:30-17:00",
    "lat": "22.6156",
    "lng": "120.3544",
    "services": "郵務、儲匯服務",
    "features": "郵局",
    "district": "鳳山市中心",
    "nearby_landmarks": "三民路",
    "description": "鳳山三民路郵局"
  },
  {
    "id": "044",
    "name": "鳳山一甲郵局",
    "category": "政府機關",
    "subcategory": "郵局",
    "address": "高雄市鳳山區五甲二路87、89、91號",
    "operating_hours": "週一至週五 08:30-17:00",
    "lat": "22.6156",
    "lng": "120.3544",
    "services": "郵務、儲匯服務",
    "features": "郵局",
    "district": "五甲地區",
    "nearby_landmarks": "五甲二路",
    "description": "鳳山一甲郵局"
  },
  {
    "id": "045",
    "name": "鳳山文山郵局",
    "category": "政府機關",
    "subcategory": "郵局",
    "address": "高雄市鳳山區文衡路236號",
    "operating_hours": "週一至週五 08:30-17:00",
    "lat": "22.6275",
    "lng": "120.3567",
    "services": "郵務、儲匯服務",
    "features": "郵局",
    "district": "鳳山車站周邊",
    "nearby_landmarks": "文衡路",
    "description": "鳳山文山郵局"
  },
  {
    "id": "046",
    "name": "鳳山工協郵局",
    "category": "政府機關",
    "subcategory": "郵局",
    "address": "高雄市鳳山區勝利路50號",
    "phone": "07-701-3235",
    "operating_hours": "週一至週五 08:00-17:00",
    "lat": "22.6156",
    "lng": "120.3544",
    "services": "郵務、儲匯服務",
    "features": "郵局",
    "district": "鳳山市中心",
    "nearby_landmarks": "勝利路",
    "description": "鳳山工協郵局"
  },
  {
    "id": "047",
    "name": "鳳山新富郵局",
    "category": "政府機關",
    "subcategory": "郵局",
    "address": "高雄市鳳山區新富路391號",
    "phone": "07-763-2485",
    "operating_hours": "週一至週五 08:00-17:00",
    "lat": "22.6397",
    "lng": "120.3483",
    "services": "郵務、儲匯服務",
    "features": "郵局",
    "district": "文山特區",
    "nearby_landmarks": "新富路",
    "description": "鳳山新富郵局"
  },
  {
    "id": "048",
    "name": "鳳儀書院",
    "category": "古蹟",
    "subcategory": "歷史古蹟",
    "address": "高雄市鳳山區鳳明街62號",
    "phone": "",
    "website": "",
    "operating_hours": "週二至週五 10:30-17:30；週六、日及國定假日 10:30-18:30(週一公休)",
    "google_rating": "4.4",
    "review_count": "",
    "lat": "22.6275",
    "lng": "120.3567",
    "google_place_id": "",
    "services": "古蹟參觀、文化導覽",
    "features": "歷史古蹟",
    "district": "鳳山市中心",
    "nearby_landmarks": "鳳明街",
    "description": "興建於1814年，現存全臺規模最大的書院"
  },
  {
    "id": "049",
    "name": "鳳山龍山寺",
    "category": "古蹟",
    "subcategory": "國定古蹟",
    "address": "高雄市鳳山區中山路7號",
    "phone": "",
    "website": "",
    "operating_hours": "每日 07:00-21:00",
    "google_rating": "4.5",
    "review_count": "",
    "lat": "22.6275",
    "lng": "120.3567",
    "google_place_id": "",
    "services": "宗教參拜、古蹟參觀",
    "features": "國定古蹟",
    "district": "鳳山市中心",
    "nearby_landmarks": "中山路",
    "description": "建於清朝乾隆初年，高雄唯一國定古蹟寺廟"
  },
  {
    "id": "050",
    "name": "曹公圓",
    "category": "古蹟",
    "subcategory": "水利設施",
    "address": "流經鳳山等多個區域，鳳山車站附近為其中一段",
    "phone": "",
    "website": "",
    "operating_hours": "全天候開放",
    "google_rating": "",
    "review_count": "",
    "lat": "22.6275",
    "lng": "120.3567",
    "google_place_id": "",
    "services": "水利設施參觀",
    "features": "水利設施",
    "district": "鳳山車站周邊",
    "nearby_landmarks": "曹公路",
    "description": "始建於1837年，高雄地區最重要的水圓系統"
  },
  {
    "id": "051",
    "name": "鳳山縣舊城",
    "category": "古蹟",
    "subcategory": "國定古蹟",
    "address": "高雄市左營區勝利路117號(遺址分散)",
    "phone": "",
    "website": "",
    "operating_hours": "全天候開放",
    "google_rating": "4.3",
    "review_count": "",
    "lat": "22.6156",
    "lng": "120.3544",
    "google_place_id": "",
    "services": "古蹟參觀、歷史導覽",
    "features": "國定古蹟",
    "district": "左營區",
    "nearby_landmarks": "勝利路",
    "description": "奧基於清朝康熙年間，台灣第一座土造城牆"
  },
  {
    "id": "052",
    "name": "平成砲台",
    "category": "古蹟",
    "subcategory": "歷史古蹟",
    "address": "高雄市鳳山區曹公路25-3號",
    "phone": "",
    "website": "",
    "operating_hours": "全天候開放",
    "google_rating": "4.1",
    "review_count": "",
    "lat": "22.6275",
    "lng": "120.3567",
    "google_place_id": "",
    "services": "古蹟參觀、歷史導覽",
    "features": "歷史古蹟",
    "district": "鳳山車站周邊",
    "nearby_landmarks": "曹公路",
    "description": "建於1838年，鳳山區內保存最完整的砲台"
  },
  {
    "id": "053",
    "name": "東便門",
    "category": "古蹟",
    "subcategory": "歷史古蹟",
    "address": "高雄市鳳山區三民路44巷28號",
    "phone": "",
    "website": "",
    "operating_hours": "全天候開放",
    "google_rating": "4.2",
    "review_count": "",
    "lat": "22.6156",
    "lng": "120.3544",
    "google_place_id": "",
    "services": "古蹟參觀、歷史導覽",
    "features": "歷史古蹟",
    "district": "鳳山市中心",
    "nearby_landmarks": "三民路",
    "description": "建於1804年，鳳山新城六座城門中唯一現存的城門"
  },
  {
    "id": "054",
    "name": "訓風砲台",
    "category": "古蹟",
    "subcategory": "歷史古蹟",
    "address": "高雄市鳳山區勝利路",
    "phone": "",
    "website": "",
    "operating_hours": "全天候開放",
    "google_rating": "4.1",
    "review_count": "",
    "lat": "22.6275",
    "lng": "120.3567",
    "google_place_id": "",
    "services": "古蹟參觀、歷史導覽",
    "features": "歷史古蹟",
    "district": "鳳山市中心",
    "nearby_landmarks": "龍山寺右側後方",
    "description": "位於龍山寺右側後方，镇守鳳山溪要衝"
  }
]